[
  {"name":"Białystok","lat":53.1325,"lng":23.1688,"radius":15000},
  {"name":"Bydgoszcz","lat":53.1235,"lng":18.0084,"radius":14000},
  {"name":"Częstochowa","lat":50.8118,"lng":19.1203,"radius":12000},
  {"name":"Gdańsk","lat":54.3520,"lng":18.6466,"radius":17000},
  {"name":"Gdynia","lat":54.5189,"lng":18.5305,"radius":12000},
  {"name":"Katowice","lat":50.2709,"lng":19.0399,"radius":14000},
  {"name":"Kraków","lat":50.0647,"lng":19.9450,"radius":18000},
  {"name":"Łódź","lat":51.7592,"lng":19.4560,"radius":15000},
  {"name":"Lublin","lat":51.2465,"lng":22.5684,"radius":15000},
  {"name":"Poznań","lat":52.4064,"lng":16.9252,"radius":15000},
  {"name":"Radom","lat":51.4027,"lng":21.1471,"radius":10000},
  {"name":"Rzeszów","lat":50.0413,"lng":21.9990,"radius":11000},
  {"name":"Szczecin","lat":53.4285,"lng":14.5528,"radius":16000},
  {"name":"Warszawa","lat":52.2297,"lng":21.0122,"radius":22000},
  {"name":"Wrocław","lat":51.1079,"lng":17.0385,"radius":17000}
]
